nom,rue,long,lat
Parking Célestins,Rue Gaspard André,4.83094505725008,45.7598750320076
Parking Antonin Poncet,Quai Gailleton,4.83256112479859,45.751102602749
Parking Terreaux,Rue d'Algérie,4.83079797448534,45.7672013915663
Parking Récamier,Quai Gailleton,4.83256112479859,45.751102602749
Parking Gare Part Dieu,Rue de la Villette,4.86177,45.761095
Gare de Tassin,Allée des Tilleuls,4.75866000000002,45.7614300000001
Gare d'Ecully-la-Demi-Lune,Place de la Gare,4.8449126,45.7787950410409
Gare d'Albigny-Neuville,Place de la Gare,4.8449126,45.7787950410409
Parking République,Rue Childebert,4.83601348637702,45.7602127902376
Parking Berthelot,Rue de Marseille,4.83857570712069,45.7493945073469
Parking Morand Lyautey,Rue de Sèze,4.85619438200728,45.769071472661
Cuirassiers 2 centre commercial,"17, Rue Docteur Bouchut",4.8547826,45.7596
Parking Saint Georges,Quai Fulchiron/Rue A. Max,4.82430434344853,45.7555932739704
P+R Laurent Bonnevay,Av. M. Cerdan/Cours Zola,4.8968482,45.7663304
Parking Gros Caillou,Rue Aimé Boussange,4.83411291837078,45.7750881169752
Parking Les Halles,Rue Garibaldi,4.85080095408557,45.7670812741512
Parking Gare Perrache La Confluence,Rue Smith,4.82284379643714,45.7432845376866
Gare de Couzon-au-Mont-d'Or,Rue Aristide Briand,4.8428316,45.5458800000001
Gare de Collonges-Fontaines,Rue Pierre Pays,4.84738999700964,45.8288869241346
Halte Ferroviaire de La Tour-de-Salvagny,Rue de la Gare,4.7181179458811,45.8073846383439
Halte Ferroviaire de Dardilly-les-Mouilles,Route d'Ecully,4.76168000000007,45.81667
Gare de Crépieux-la-Pape,Chemin des Iles,4.886247,45.75167
Lyon Eurexpo,Eurexpo,4.98931000000005,45.7689300000001
Parking Cité Internationale P2,Quai Charles de Gaulle,4.84576320734171,45.7798309617674
Parking Hôtel de Ville Villeurbanne,Rue Racine,4.87807986695691,45.7662435435403
Parking Fosse aux Ours,Quai Augagneur/Rue Gambetta,4.8531533080388,45.7076191224858
Parking Saint Jean,Quai Romain Rolland,4.82907006741922,45.7635776996381
Parking Saint Just,Rue des Farges,4.82070864731354,45.7568943114321
Parking Arles Dufour,Rue Narcisse Bertholey,4.80749587779999,45.7164663355873
P+R Décines Centre,Rue Emile Bertrand,45.7714591693428,4.95460729065964
P+R Vaise 1,Route de Saint Cyr,4.81576374982347,45.7958936652466
P+R Vénissieux,R. des Combats du 24 aout 1944,4.8956345229176,45.7027533091409
P+R Porte des Alpes,Cours du Pr Jean Bernard,4.92546857746154,45.7187514496389
Gare d'Oullins,Place Valmy,4.8053993954564,45.7752127172526
Bonnel-Servient,Rue de Bonnel,4.8614987,45.7628808
Gare de Charbonnières-les-Bains,Avenue de la Victoire,4.7344562,45.7844007
Gare de Givors Ville,Esplanade A. de St Exupéry,4.8282646972619,45.7576439796839
P+R Porte de Lyon,RD306,4.80128464353035,45.7799560391059
Gare de Grigny le Sablon,Rue Caraca,4.7927081,45.6072500000001
P+R Hôpital Feyzin Vénissieux,Avenue du 11 Novembre 1918,4.60769000000005,45.8316300000001
Gare de Feyzin,Rue du Dauphiné,4.8611452,45.7499565834711
Gare de Feyzin,Rue du Dauphiné,4.8611452,45.7499565834711
P+R Gorge de Loup,Rue Pr Guérin/Rue Sgt Berthet,4.80442238771676,45.7658299217715
P+R Décines Grand Large,Rue Francisco Ferrer,4.89088000245917,45.7214831814524
Gare de Vernaison,Rue de la Gare,4.81318000000005,45.6458000000001
P+R Feyssine,Rue de la Technologie,4.88161370908576,45.7871351288387
Parking Tables Claudiennes,Rue des Tables Claudiennes,4.83258000000006,45.77086
Parking Rozier,Rue de l'Abbé Rozier,4.83395418207146,45.7696083329188
Parking Tony Garnier,Rue Jonas Salk,4.82294582637871,45.7298931518824
Parking Cité Internationale P1,Quai Charles de Gaulle,4.84576320734171,45.7798309617674
Parking Cité Internationale P0,Quai Charles de Gaulle,4.84576320734171,45.7798309617674
Parking Opéra-Tolozan,Place Tolozan,4.83749143800478,45.7693902148753
Parking Vendôme,Rue Vauban,4.22261000000003,46.2614400000001
Parking Bourse,Rue de la Bourse,4.83683305279279,45.7643400726556
Halte Ferroviaire de Dardilly-le-Jubin,Chemin du Dodin,4.76168000000007,45.81667
P+R Parilly,Avenue Jules Guesde,4.88783125757419,45.7112178527178
Gare de Saint-Germain-au-Mont-d'Or,Rue Vincenot,T,45.8883300000001
Gare de Saint-Germain-au-Mont-d'Or,Rue Vincenot,4.80406000000005,45.8883300000001
Halte Ferroviaire Les Flachères,Ch. de la Halte des Flachères,"4,754369253338834","45,777286727671985"
Parking Perrache 1,Cours de Verdun,4.31717206728624,46.1006093278995
Parking Brotteaux,Place Brosset,4.85862039474381,45.7673400387947
P+R Vaulx en Velin La Soie,Rue Maurice Moissonnier,4.83296355181314,45.7662148121926
Parking Cordeliers,Rue Salès/Rue Claudia,4.83759290286746,45.7636600023015
Gare de Francheville,Route de la Gare,4.80064510591359,45.7787950410409
Gare de Sathonay-Rillieux,Avenue Carnot,4.87505000000004,45.8203600000001
Gare de Givors Canal,Avenue du 11 Novembre 1918,4.8721229,45.7638834991672
P+R Meyzieu ZI,Avenue Henri Schneider,4.88058955760343,45.7482570268962
P+R Meyzieu Gare,Rue de la Gare,4.80064510591359,45.7787950410409
P+R Cuire,Rue de la Gare de Cuire,4.83154717010943,45.7859615191183
Gare de Saint-Priest,Avenue de la Gare,4.93405000000007,45.6868000000001
Halte Ferroviaire de Pierre-Bénite,Rue Stalingrad,4.8233109748085,45.7058789082941
P+R Oullins Sud,Rue Edmond Locard,4.80147232055469,45.7599190973757
Parking Minute Cité internationale,Quai Charles de Gaulle,4.84576320734171,45.7798309617674
Oxygène centre commercial,Rue de Bonnel,4.8542838123308,45.7623428624826
Gare de Saint-Germain-au-Mont-d'Or,Avenue Louis Armand,4.80406000000005,45.8883300000001
Gare de Saint-Germain-au-Mont-d'Or,Avenue Louis Armand,4.80406000000005,45.8883300000001
Gare de Feyzin,Rue Hector Berlioz,4.8980675,45.80096
Gare de Feyzin,Rue Hector Berlioz,4.8980675,45.80096
P+R Oullins Nord,Rue Edmond Locard,4.80147232055469,45.7599190973757
P+R Rillieux Semailles,Avenue de l'Europe,4.85910324582231,45.7403690074211
P+R St-Genis Gadagne,Avenue Georges Clémenceau,4.777043347385,45.7633518785606
P+R Bel Air,Avenue Pierre Mendès France,4.91525011366011,45.7242570452412
Gare de Dommartin-Lissieu,Chemin des Chevreuils,4.7360574,45.7474189562367
P+R Mermoz,Route Nationale 2043,4.88291143528036,45.7357013750587
P+R Vaise 2,Route de Saint Cyr,4.81576374982347,45.7958936652466
Parking Bellecour,Place Bellecour,4.83077000000003,45.75856
Parking Hôtel de Ville,Quai Jean Moulin,4.83842000000004,45.7641300000001
Parking Grolée,Rue Tupin,4.83485579137149,45.7629475324449
Parking Saint Antoine,Quai St Antoine/Quai Célestins,4.83057346028321,45.7601534421853
Halte Ferroviaire Le Méridien,Avenue Jean Bergeron,4.74862000000007,45.76883
Parking Perrache 2,Centre d'échange de Perrache,4.8295104,45.7478416
Parking Ney,Rue Ney,4.85564910325766,45.7671114111078
Parking Villette,Rue Maurice Flandin,4.86298186272074,45.7598970022356
Gare de Saint-Fons,Avenue Diderot,4.8527776,45.705486
Gare de Givors Ville,Rue Pierre Sémard,4.84499484184959,45.741202409141
Parking Croix-Rousse,Rue de Belfort,4.83475072547434,45.7785732756111
P+R Meyzieu Panettes,Chemin des Panettes,4.82965000000007,45.75917
Parking P1 - Aéroport Lyon - St-Exupéry,Aéroport Saint Exupéry,"5,077925713386929","45,72202930340961"
Parking P0 - Aéroport Lyon - St-Exupéry,Aéroport Saint Exupéry,"5,077925713386929","45,72202930340961"
Parking P2 - Aéroport Lyon - St-Exupéry,Aéroport Saint Exupéry,"5,077925713386929","45,72202930340961"
Parking P4 - Aéroport Lyon - St-Exupéry,Aéroport Saint Exupéry,"5,077925713386929","45,72202930340961"
Parking P5 - Aéroport Lyon - St-Exupéry,Aéroport Saint Exupéry,"5,077925713386929","45,72202930340961"
Parking P3 - Aéroport Lyon - St-Exupéry,Aéroport Saint Exupéry,"5,077925713386929","45,72202930340961"
Marché gare - La Confluence,Quai Perrache,4.82411688444436,45.7413422488533
Cuirassiers 1 centre commercial,"17, Rue du Docteur Bouchut",4.8547826,45.7596
P+R Grézieu la Varenne,Route du Col de la Luère,4.62906000000004,45.76277
